City_ID,City,Lat,Lng,Max Temp,Humidity,Cloudiness,Wind Speed,Country,Date
0,olonkinbyen,70.9221,-8.7187,-2.28,71,6,6.78,SJ,1700947626
1,yellowknife,62.456,-114.3525,-13.71,66,75,3.6,CA,1700947634
2,nova sintra,14.8667,-24.7167,22.44,73,28,8.62,CV,1700947634
3,puerto natales,-51.7236,-72.4875,9.25,66,36,9.06,CL,1700947635
4,reyes,-14.3167,-67.3833,26.26,76,100,0.38,BO,1700947635
5,invercargill,-46.4,168.35,12.79,79,66,1.79,NZ,1700947439
6,laguna,38.421,-121.4238,17.38,33,0,5.14,US,1700947636
7,west island,-12.1568,96.8225,25.99,78,75,5.66,CC,1700947637
8,albany,42.6001,-73.9662,3.23,62,100,0.61,US,1700947498
9,swakopmund,-22.6833,14.5333,16.47,87,7,2.17,NA,1700947638
10,labuan,5.2767,115.2417,26.2,94,20,0.0,MY,1700947638
11,bethel,41.3712,-73.414,3.62,52,0,2.06,US,1700947639
12,adamstown,-25.066,-130.1015,21.79,83,100,10.9,PN,1700947639
13,buzias,45.6492,21.6036,4.14,69,100,6.96,RO,1700947640
14,zhezqazghan,47.7833,67.7667,-0.14,56,100,2.97,KZ,1700947640
15,nadym,65.5333,72.5167,-15.85,94,100,6.56,RU,1700947641
16,maur,30.0833,75.25,16.81,30,100,1.9,IN,1700947461
17,mek'ele,13.4967,39.4753,15.08,48,27,3.85,ET,1700947642
18,marka,1.7159,44.7717,27.49,78,100,5.24,SO,1700947642
19,port-aux-francais,-49.35,70.2167,3.75,77,15,16.72,TF,1700947643
20,kodiak,57.79,-152.4072,5.73,100,100,1.54,US,1700947643
21,badger,64.8,-147.5333,-5.36,90,0,0.0,US,1700947644
22,lebu,-37.6167,-73.65,13.48,79,15,7.9,CL,1700947644
23,coxen hole,16.3244,-86.5366,29.6,66,20,3.09,HN,1700947071
24,waitangi,-43.9535,-176.5597,16.01,98,100,3.13,NZ,1700947395
25,ilulissat,69.2167,-51.1,8.01,53,75,6.69,GL,1700947646
26,lata,40.1629,-8.3327,13.78,90,61,0.52,PT,1700947646
27,bilibino,68.0546,166.4372,-11.18,92,100,2.42,RU,1700947646
28,klyuchi,52.2667,79.1667,0.11,57,96,4.6,RU,1700947647
29,conception bay south,47.4999,-52.9981,-0.7,77,91,6.99,CA,1700947631
30,talnakh,69.4865,88.3972,-22.74,98,39,2.55,RU,1700947648
31,natal,-5.795,-35.2094,27.36,69,20,5.14,BR,1700947381
32,thompson,55.7435,-97.8558,-2.91,93,100,3.6,CA,1700947649
33,itapecuru mirim,-3.3925,-44.3586,30.01,61,94,3.82,BR,1700947649
34,hammerfest,70.6634,23.6821,0.25,100,100,4.63,NO,1700947650
35,ust-nera,64.5667,143.2,-32.86,99,97,2.57,RU,1700947418
36,lerwick,60.1545,-1.1494,4.0,71,91,4.22,GB,1700947651
37,ushuaia,-54.8,-68.3,8.81,76,75,7.72,AR,1700947651
38,vorgashor,67.5833,63.95,-10.46,89,100,2.86,RU,1700947652
39,margaret river,-33.95,115.0667,16.93,62,83,6.38,AU,1700947652
40,utrik,11.2278,169.8474,27.47,75,64,7.95,MH,1700947653
41,the pas,53.8251,-101.2541,-0.99,86,100,8.23,CA,1700947653
42,blackmans bay,-43.0167,147.3167,13.18,96,100,0.89,AU,1700947654
43,edinburgh of the seven seas,-37.0676,-12.3116,14.65,83,30,12.31,SH,1700947655
44,bokani,9.4333,5.2,27.08,64,52,3.3,NG,1700947655
45,port lincoln,-34.7333,135.8667,16.22,72,100,3.63,AU,1700947655
46,fale old settlement,-9.3852,-171.2468,28.78,71,91,3.48,TK,1700947656
47,vicente noble,18.3844,-71.1801,31.78,70,40,5.14,DO,1700947656
48,ulsteinvik,62.3432,5.8487,4.86,89,100,1.34,NO,1700947657
49,bredasdorp,-34.5322,20.0403,15.81,79,88,2.03,ZA,1700947657
50,manokwari,-0.8667,134.0833,25.5,81,97,2.48,ID,1700947658
51,grytviken,-54.2811,-36.5092,1.01,74,24,4.19,GS,1700947659
52,raja,8.4596,25.678,25.97,65,86,3.71,SS,1700947659
53,lihue,21.9789,-159.3672,26.77,76,0,1.54,US,1700947660
54,constantia,44.1833,28.65,3.38,91,100,12.61,RO,1700947453
55,timimoun,29.2639,0.231,13.21,30,0,1.03,DZ,1700947661
56,wailua homesteads,22.0669,-159.378,26.44,81,0,1.54,US,1700947662
57,whakatane,-37.9585,176.9854,21.05,68,58,2.68,NZ,1700947662
58,praia da vitoria,38.7333,-27.0667,19.86,100,100,6.53,PT,1700947663
59,brisas de zicatela,15.8369,-97.0419,30.29,51,0,3.09,MX,1700947663
60,st. john's,47.5649,-52.7093,-0.57,77,75,5.66,CA,1700947664
61,shar,49.5886,81.0453,-2.04,85,64,2.46,KZ,1700947664
62,luena,-11.7833,19.9167,17.78,96,100,1.31,AO,1700947664
63,hereford,52.0568,-2.7148,3.07,93,100,1.05,GB,1700947381
64,kuanda,56.3161,116.0806,-28.65,96,81,0.42,RU,1700947665
65,nova vicosa,-17.8919,-39.3719,24.65,69,98,7.71,BR,1700947666
66,jiwani,25.05,61.7417,23.69,65,0,3.57,PK,1700947666
67,cidreira,-30.1811,-50.2056,19.5,65,7,5.44,BR,1700947667
68,port mathurin,-19.6833,63.4167,24.48,68,68,7.52,MU,1700947668
69,port saint john's,-31.6229,29.5448,21.77,93,100,3.47,ZA,1700947668
70,tralee,52.2704,-9.7026,9.16,94,100,2.47,IE,1700947669
71,birni n konni,13.7956,5.2553,28.5,45,99,1.18,NE,1700947669
72,mishkino,55.3389,63.9175,1.41,97,100,5.41,RU,1700947670
73,iqaluit,63.7506,-68.5145,-12.39,78,75,12.52,CA,1700947670
74,hojai,26.0,92.8667,16.93,95,0,1.6,IN,1700947671
75,nemuro,43.3236,145.575,-1.16,65,7,8.67,JP,1700947671
76,selfoss,63.9331,-20.9971,5.41,90,100,1.66,IS,1700947672
77,aasiaat,68.7098,-52.8699,-0.23,92,100,4.93,GL,1700947672
78,daday,41.4787,33.4667,7.88,86,98,3.26,TR,1700947638
79,tolanaro,-25.0319,46.9987,24.04,78,20,9.26,MG,1700947673
80,cabo san lucas,22.8909,-109.9124,29.23,65,40,3.6,MX,1700947051
81,papatowai,-46.5619,169.4708,14.97,64,46,3.16,NZ,1700947674
82,khandyga,62.6667,135.6,-38.32,99,100,0.22,RU,1700947675
83,kapuskasing,49.4169,-82.4331,1.05,44,75,6.69,CA,1700947675
84,hithadhoo,-0.6,73.0833,27.21,77,61,1.5,MV,1700947676
85,longyearbyen,78.2186,15.6401,-6.09,79,75,4.12,SJ,1700947676
86,dapa,9.7594,126.0531,26.99,81,70,3.52,PH,1700947397
87,atar,20.5169,-13.0499,21.85,17,0,3.72,MR,1700947677
88,kingston,17.997,-76.7936,29.53,80,40,7.72,JM,1700947474
89,coralville,41.6764,-91.5805,3.38,50,100,2.06,US,1700947678
90,bintulu,3.1667,113.0333,25.23,94,40,1.03,MY,1700947679
91,labrador city,52.9463,-66.9114,-11.05,62,100,7.72,CA,1700947679
92,jamestown,42.097,-79.2353,3.9,49,0,2.06,US,1700947672
93,minas de marcona,-15.2119,-75.1103,19.17,60,48,6.38,PE,1700947680
94,al lagowa,11.4,29.1333,29.74,23,1,3.34,SD,1700947519
95,sinabang,2.4803,96.3801,25.73,82,100,1.34,ID,1700947681
96,shenkursk,62.1091,42.896,-15.61,98,83,0.88,RU,1700947681
97,celestun,20.8667,-90.4,26.78,77,50,3.56,MX,1700947682
98,daru,-9.0763,143.2092,27.14,80,90,4.81,PG,1700947683
99,howrah,22.5892,88.3103,20.0,77,40,2.57,IN,1700947684
100,puerto armuelles,8.2833,-82.8667,27.99,82,98,3.13,PA,1700947684
101,iskateley,67.6803,53.1512,-16.66,96,83,2.68,RU,1700947685
102,amga,60.8953,131.9608,-37.33,100,100,0.81,RU,1700947685
103,ain el bya,35.8039,-0.3018,10.27,62,13,2.48,DZ,1700947686
104,stanley,54.868,-1.6985,0.59,88,20,2.06,GB,1700947686
105,naze,28.3667,129.4833,18.51,72,77,3.49,JP,1700947687
106,mata-utu,-13.2816,-176.1745,28.52,72,100,5.04,WF,1700947687
107,kende,11.5197,4.2603,29.4,53,75,1.58,NG,1700947688
108,queenstown,-31.8976,26.8753,18.08,87,100,2.87,ZA,1700947688
109,tura,25.5198,90.2201,16.73,84,0,1.9,IN,1700947689
110,tazovsky,67.4667,78.7,-21.45,85,15,4.59,RU,1700947689
111,luwuk,-0.9516,122.7875,25.21,86,99,1.02,ID,1700947690
112,pericos,25.05,-107.7,29.95,37,61,2.67,MX,1700947690
113,buckeye,33.3703,-112.5838,21.79,17,0,4.12,US,1700947639
114,sarmiento,-45.5882,-69.07,22.23,32,100,14.94,AR,1700947692
115,yaren,-0.5472,166.916,28.9,70,48,1.82,NR,1700947692
116,kolonia,50.9333,6.95,6.09,88,75,2.06,DE,1700947693
117,arraial do cabo,-22.9661,-42.0278,22.92,53,75,3.6,BR,1700947693
118,arvayheer,46.2639,102.775,-7.32,59,96,3.64,MN,1700947694
119,whitehorse,60.7161,-135.0538,0.05,92,100,1.03,CA,1700947694
120,rongelap,11.1635,166.8941,27.79,79,30,8.35,MH,1700947695
121,san borja,-14.8167,-66.85,28.45,59,97,1.1,BO,1700947695
122,oltinko'l,40.8011,72.1634,11.07,29,96,0.4,UZ,1700947696
123,candolim,15.5181,73.7626,27.01,79,99,2.23,IN,1700947696
124,antonio enes,-16.2325,39.9086,25.91,81,40,4.46,MZ,1700947697
125,vadso,70.0744,29.7487,-0.91,93,100,6.17,NO,1700947697
126,metlili chaamba,32.2667,3.6333,15.52,21,0,2.06,DZ,1700947698
127,belyy yar,53.6039,91.3903,-4.06,63,0,5.0,RU,1700947698
128,karratha,-20.7377,116.8463,27.08,65,8,4.68,AU,1700947699
129,ribeira grande,38.5167,-28.7,20.43,94,75,5.81,PT,1700947699
130,susuman,62.7833,148.1667,-25.75,99,100,2.81,RU,1700947700
131,noosa heads,-26.3833,153.15,24.5,70,82,2.11,AU,1700947606
132,dudinka,69.4058,86.1778,-28.0,100,25,2.02,RU,1700947701
133,mandalgovi,45.7625,106.2708,-8.93,81,100,2.47,MN,1700947701
134,chikwawa,-16.0335,34.8009,27.96,58,96,1.4,MW,1700947702
135,floirac,44.8324,-0.5141,3.9,81,0,3.09,FR,1700947702
136,udachny,66.4167,112.4,-19.2,76,100,4.52,RU,1700947703
137,la ronge,55.1001,-105.2842,-2.86,63,100,8.23,CA,1700947703
138,colonia,50.9333,6.95,6.09,88,75,2.06,DE,1700947693
139,christchurch,-43.5333,172.6333,15.85,70,0,2.57,NZ,1700947673
140,portland,45.5234,-122.6762,11.99,53,0,2.24,US,1700947382
141,byron bay,-28.65,153.6167,23.73,73,62,3.58,AU,1700947706
142,hoemul-li,41.4339,129.67,-2.52,46,55,1.99,KP,1700947706
143,winterset,41.3308,-94.0138,0.3,40,100,2.3,US,1700947707
144,san antonio de pale,-1.4014,5.6325,26.86,83,19,4.49,GQ,1700947708
145,sisimiut,66.9395,-53.6735,-1.87,81,22,4.87,GL,1700947708
146,vanimo,-2.6741,141.3028,25.29,90,90,1.05,PG,1700947709
147,ketchikan,55.3422,-131.6461,7.99,100,100,2.06,US,1700947709
148,punta arenas,-53.15,-70.9167,13.06,44,0,20.06,CL,1700947709
149,new norfolk,-42.7826,147.0587,13.84,98,100,2.0,AU,1700947710
150,vershino-darasunskiy,52.35,115.5167,-23.81,99,98,0.89,RU,1700947710
151,fort st. john,56.2499,-120.8529,2.94,81,40,2.06,CA,1700947534
152,hau-ri,41.2006,129.4703,-4.3,46,72,0.76,KP,1700947711
153,crane,31.3974,-102.3501,15.17,64,85,5.56,US,1700947712
154,tromso,69.6496,18.957,-1.99,93,75,1.03,NO,1700947712
155,miyaly,48.8844,53.7836,4.07,77,99,5.44,KZ,1700947713
156,sos'va,59.1766,61.8558,-16.08,100,90,0.89,RU,1700947713
157,atafu village,-8.5421,-172.5159,29.37,71,97,4.96,TK,1700947714
158,sauri,11.7266,6.7837,28.86,37,92,2.18,NG,1700947714
159,vila franca do campo,37.7167,-25.4333,19.23,99,99,4.93,PT,1700947715
160,alibag,18.6411,72.8792,29.04,77,57,1.28,IN,1700947716
161,kone,-21.0595,164.8658,24.7,65,100,1.6,NC,1700947716
162,kibungo,-2.1597,30.5427,16.51,97,98,1.15,RW,1700947717
163,kuningan,-6.9758,108.4831,21.83,93,100,2.17,ID,1700947717
164,okhotsk,59.3833,143.3,-21.81,83,92,9.76,RU,1700947717
165,keflavik,64.0049,-22.5624,6.95,93,75,4.12,IS,1700947718
166,dawei,14.0833,98.2,23.76,75,86,2.66,MM,1700947718
167,awjilah,29.1081,21.2869,15.86,44,0,5.6,LY,1700947719
168,qina,26.1642,32.7267,23.34,22,36,0.55,EG,1700947719
169,port elizabeth,-33.918,25.5701,19.62,87,98,1.54,ZA,1700947720
170,al bayda',32.7627,21.7551,13.9,77,88,15.35,LY,1700947720
171,esperanza,19.5847,-70.9849,29.32,73,74,1.79,DO,1700947721
172,isafjordur,66.0755,-23.124,4.1,97,100,2.51,IS,1700947722
173,smara,26.7384,-11.6719,16.85,59,0,6.08,EH,1700947722
174,faya-largeau,17.9257,19.1043,27.85,17,77,3.45,TD,1700947722
175,grand falls-windsor,48.9332,-55.6649,-3.05,66,37,0.89,CA,1700947723
176,magadan,59.5667,150.8,-16.93,76,100,3.96,RU,1700947724
177,avarua,-21.2078,-159.775,26.03,73,75,9.26,CK,1700947724
178,kapa'a,22.0752,-159.319,27.18,81,0,1.54,US,1700947724
179,hotan,37.0997,79.9269,3.82,31,5,1.05,CN,1700947725
180,undurkhaan,47.3194,110.6556,-13.86,90,100,1.85,MN,1700947725
181,lautoka,-17.6167,177.4667,28.92,61,20,1.54,FJ,1700947726
182,malvan,16.0667,73.4667,26.15,82,32,2.86,IN,1700947726
183,flying fish cove,-10.4217,105.6791,24.82,88,75,2.06,CX,1700947727
184,mazagao,-0.115,-51.2894,32.03,56,83,3.44,BR,1700947728
185,san fernando de apure,7.8878,-67.4724,30.26,58,100,2.19,VE,1700947728
186,fada,9.5667,8.3,23.32,72,81,0.28,NG,1700947729
187,laojunmiao,39.8333,97.7333,1.47,23,100,3.05,CN,1700947729
188,puerto ayora,-0.7393,-90.3518,29.98,88,59,4.02,EC,1700947730
189,salalah,17.0151,54.0924,25.05,65,40,2.06,OM,1700947730
190,chernyshevsk,52.5243,117.0174,-23.14,99,100,0.61,RU,1700947731
191,tazacorte,28.629,-17.9293,20.54,76,75,3.09,ES,1700947731
192,chonchi,-42.6128,-73.8092,16.56,56,24,0.58,CL,1700947732
193,sheridan,44.8333,-106.9173,1.12,59,0,2.57,US,1700947732
194,puerto aysen,-45.4,-72.7,11.01,96,100,2.28,CL,1700947733
195,paramonga,-10.6667,-77.8333,21.38,76,90,5.02,PE,1700947734
196,mil'kovo,55.6078,37.7956,-4.73,98,66,1.35,RU,1700947735
197,barrouallie,13.2333,-61.2667,26.79,78,75,6.17,VC,1700947735
198,palmer,42.1584,-72.3287,2.86,40,75,3.09,US,1700947736
199,santiago del torno,-17.9833,-63.3833,28.1,49,64,2.14,BO,1700947737
200,celaru,44.05,24.1333,2.09,100,100,4.65,RO,1700947737
201,hadyach,50.3711,33.991,-0.35,88,100,2.88,UA,1700947738
202,yelizovo,53.1873,158.3805,-5.67,61,40,4.02,RU,1700947738
203,qaqortoq,60.7167,-46.0333,0.39,98,100,2.32,GL,1700947739
204,tidjikja,18.5564,-11.4271,22.29,16,0,3.56,MR,1700947739
205,georgetown,5.4112,100.3354,25.96,92,20,1.54,MY,1700947654
206,hawaiian paradise park,19.5933,-154.9731,25.02,90,100,2.57,US,1700947740
207,bjuv,56.0837,12.9191,-1.83,76,0,2.57,SE,1700947741
208,businga,3.3333,20.8833,20.99,99,100,0.95,CD,1700947741
209,college,64.8569,-147.8028,-5.31,89,20,0.0,US,1700947742
210,riosucio,5.4216,-75.7032,20.56,79,97,0.82,CO,1700947742
211,sao tome,0.3365,6.7273,26.95,84,49,3.22,ST,1700947743
212,baki,-7.6128,110.7839,24.68,88,100,4.02,ID,1700947744
213,kavieng,-2.5744,150.7967,27.72,76,24,1.86,PG,1700947744
214,sevastopol,44.6,33.5333,15.56,54,100,3.13,UA,1700947745
215,zlate moravce,48.3855,18.4006,0.08,87,22,1.83,SK,1700947745
216,lompoc,34.6391,-120.4579,20.56,50,0,3.13,US,1700947707
217,banda aceh,5.5577,95.3222,25.81,82,100,1.19,ID,1700947746
218,vilyuysk,63.7553,121.6247,-32.95,99,13,2.35,RU,1700947747
219,enewetak,11.3474,162.3373,27.91,75,28,9.95,MH,1700947747
220,motygino,58.1831,94.7592,-20.46,94,6,2.38,RU,1700947748
221,chos malal,-37.3781,-70.2709,29.64,12,0,5.16,AR,1700947748
222,port moresby,-9.4431,147.1797,26.68,83,75,1.54,PG,1700947749
223,broken hill,-31.95,141.4333,17.15,66,0,5.98,AU,1700947749
224,khash,28.2211,61.2158,10.55,81,2,2.81,IR,1700947750
225,chania,35.5122,24.0156,17.78,82,75,9.26,GR,1700947751
226,ixtapa,20.7,-105.2,27.9,54,0,4.63,MX,1700947751
227,puerto baquerizo moreno,-0.9,-89.6,28.55,84,40,7.2,EC,1700947752
228,popilnia,49.9665,29.4435,-0.24,83,100,2.06,UA,1700947752
229,midvagur,62.0511,-7.1939,4.46,93,100,0.0,FO,1700947753
230,ugoofaaru,5.6667,73.0,28.03,74,44,2.76,MV,1700947753
231,ewo,-0.8725,14.8206,22.31,94,95,1.48,CG,1700947754
232,waynesville,35.4887,-82.9887,10.2,68,100,1.34,US,1700947754
233,tiksi,71.6872,128.8694,-24.17,95,91,1.57,RU,1700947754
234,howard springs,-12.497,131.047,26.04,97,84,0.5,AU,1700947755
235,pitimbu,-7.4706,-34.8086,27.33,66,18,5.94,BR,1700947756
236,holualoa,19.6228,-155.9522,26.97,73,20,3.09,US,1700947756
237,urangan,-25.3,152.9,22.58,70,71,1.67,AU,1700947757
238,kaiapoi,-43.3783,172.6401,15.94,62,0,2.57,NZ,1700947757
239,morehead,37.2711,-87.1764,10.55,56,0,0.0,US,1700947527
240,alofi,-19.0595,-169.9187,28.94,79,100,4.63,NU,1700947758
241,geraldton,-28.7667,114.6,21.23,83,100,2.06,AU,1700947584
242,tokar,18.4254,37.729,28.09,74,91,4.64,SD,1700947759
243,sechura,-5.5569,-80.8222,26.6,54,82,8.19,PE,1700947760
244,saint-pierre,-21.3393,55.4781,22.82,68,0,1.54,RE,1700947760
245,vorkuta,67.5,64.0,-10.41,90,100,2.32,RU,1700947761
246,al muwayh,22.4333,41.7583,24.65,47,17,1.48,SA,1700947762
247,port alfred,-33.5906,26.891,17.88,99,100,0.45,ZA,1700947763
248,sitka,57.0531,-135.33,8.94,93,75,2.57,US,1700947763
249,oriximina,-1.7656,-55.8661,32.11,47,92,1.59,BR,1700947764
250,fort bragg,35.139,-79.006,11.57,51,0,3.6,US,1700947764
251,zhangye,38.9342,100.4517,1.13,32,9,2.14,CN,1700947765
252,guichen,47.9676,-1.7953,1.73,87,0,1.54,FR,1700947765
253,hafar al-batin,28.4328,45.9708,15.32,72,0,4.12,SA,1700947766
254,bikenibeu village,1.3673,173.1241,29.98,79,75,1.54,KI,1700947766
255,menongue,-14.6585,17.691,17.78,93,65,2.19,AO,1700947766
256,polyarnyy,69.1989,33.4478,-6.43,86,99,3.11,RU,1700947767
257,chervyen',53.7059,28.4313,-0.83,96,87,2.74,BY,1700947767
258,petropavlovsk-kamchatsky,53.0452,158.6483,-6.42,69,40,11.62,RU,1700947768
259,serdar,38.9764,56.2757,13.42,30,4,2.49,TM,1700947768
260,mount isa,-20.7333,139.5,24.87,65,92,2.06,AU,1700947769
261,miri,4.4148,114.0089,25.08,100,40,1.54,MY,1700947769
262,alakurtti,66.9672,30.3491,-11.62,98,100,0.5,RU,1700947770
263,pacocha,-17.5833,-71.3333,22.08,64,40,3.6,PE,1700947771
264,port augusta,-32.5,137.7667,17.14,72,5,5.67,AU,1700947771
265,aginskoye,51.1,114.53,-20.51,96,100,1.16,RU,1700947772
266,pyay,18.8167,95.2167,19.81,90,65,2.89,MM,1700947772
267,broome,42.2506,-75.833,3.64,66,0,2.06,US,1700947773
268,binzhou,37.3667,118.0167,3.35,87,100,0.75,CN,1700947774
269,isangel,-19.55,169.2667,27.06,61,75,3.09,VU,1700947775
270,iskitim,54.6366,83.3045,-4.05,84,89,4.12,RU,1700947775
271,yuzhno-kurilsk,44.0306,145.8556,-0.35,78,97,7.72,RU,1700947776
272,el calafate,-50.3408,-72.2768,11.57,49,1,12.02,AR,1700947776
273,al ghayzah,16.2079,52.176,25.95,65,99,1.91,YE,1700947777
274,uturoa,-16.7333,-151.4333,26.61,77,65,10.37,PF,1700947777
275,glace bay,46.1969,-59.957,-2.14,71,40,4.92,CA,1700947778
276,guingamp,48.4167,-3.3333,2.96,77,98,1.53,FR,1700947779
277,guerrero negro,27.9769,-114.0611,20.54,54,18,4.6,MX,1700947779
278,kavaratti,10.5669,72.642,28.45,73,58,3.24,IN,1700947779
279,calchaqui,-29.8877,-60.287,24.84,54,97,2.93,AR,1700947780
280,carnarvon,-24.8667,113.6333,20.63,78,26,3.48,AU,1700947780
281,likisa,-8.6695,125.6875,18.64,83,47,1.02,TL,1700947781
282,omdurman,15.6445,32.4777,31.57,20,8,4.32,SD,1700947781
283,laichingen,48.4894,9.6861,1.61,97,100,7.86,DE,1700947782
284,kinablangan,7.6947,126.5503,25.23,86,77,2.08,PH,1700947782
285,roma,43.2128,-75.4557,2.75,73,100,0.0,US,1700947783
286,lagos,6.5833,3.75,26.39,87,60,2.09,NG,1700947732
287,perevolotskiy,51.8763,54.1938,1.58,100,100,1.48,RU,1700947784
288,ust'-ilimsk,58.0006,102.6619,-22.44,100,79,1.13,RU,1700947785
289,bansang,13.4333,-14.65,26.34,18,0,2.0,GM,1700947785
290,port pirie,-33.1833,138.0167,16.21,75,37,2.93,AU,1700947786
291,redencao,-4.2258,-38.7306,26.67,68,2,3.24,BR,1700947786
292,hechuan,29.9947,106.2572,15.27,89,91,1.03,CN,1700947787
293,saipan,15.1355,145.701,27.39,89,20,6.69,MP,1700947788
294,yongfeng,27.4283,112.1834,8.87,73,46,1.88,CN,1700947788
295,geneseo,42.7959,-77.8169,3.68,70,91,0.94,US,1700947789
296,burutu,5.3509,5.5076,26.64,86,99,2.23,NG,1700947789
297,zheshart,62.0731,49.5733,-15.89,99,97,1.02,RU,1700947789
298,east london,-33.0153,27.9116,20.82,91,100,4.71,ZA,1700947743
299,bandon,51.7469,-8.7425,9.77,93,100,4.67,IE,1700947790
300,anadyr,64.75,177.4833,-0.72,92,75,11.0,RU,1700947791
301,claveria,18.6074,121.0832,24.4,88,99,5.84,PH,1700947791
302,fatehabad,29.5167,75.45,17.0,29,93,2.14,IN,1700947792
303,revda,56.801,59.9303,-1.89,92,98,3.77,RU,1700947792
304,malango,-2.9627,119.9001,19.6,97,100,0.84,ID,1700947793
305,santa ana,33.7456,-117.8678,23.13,33,20,5.14,US,1700947742
306,turpan,42.9333,89.1667,1.86,34,9,0.78,CN,1700947794
307,guankou,28.15,113.6333,7.89,80,78,1.28,CN,1700947794
308,taksimo,56.3444,114.8794,-25.08,97,88,0.17,RU,1700947795
309,vilyuchinsk,52.9306,158.4028,-5.6,73,18,7.47,RU,1700947795
310,newman,37.3138,-121.0208,16.24,37,0,2.68,US,1700947796
311,saynshand,44.8824,110.1163,-9.96,81,100,2.85,MN,1700947796
312,hiratacho,35.4333,132.8167,2.01,93,75,3.6,JP,1700947797
313,berdigestyakh,62.0989,126.6992,-32.96,100,97,1.71,RU,1700947797
314,changanacheri,9.4667,76.55,23.8,95,91,1.1,IN,1700947798
315,kiunga,-6.1219,141.2906,24.03,99,99,0.33,PG,1700947798
316,sona,45.4388,10.8255,5.75,30,0,1.54,IT,1700947799
317,northam,51.0333,-4.2167,7.03,86,100,2.23,GB,1700947799
318,pisco,-13.7,-76.2167,22.03,73,0,6.17,PE,1700947799
319,shitanjing,39.2342,106.3439,2.09,34,53,4.5,CN,1700947800
320,raton,36.9034,-104.4391,1.34,55,0,4.63,US,1700947800
321,santyoku,37.4406,129.1708,2.97,31,100,3.21,KR,1700947801
322,nantucket,41.2835,-70.0995,2.08,63,0,2.06,US,1700947801
323,windsor,42.3001,-83.0165,3.28,62,75,1.03,CA,1700947556
324,penzance,50.1186,-5.5371,11.54,74,100,3.39,GB,1700947803
325,san martin de valdeiglesias,40.3623,-4.3439,10.48,62,48,1.78,ES,1700947804
326,farah,32.5,62.5,11.83,70,100,1.86,AF,1700947804
327,shalqar,47.8333,59.6,0.9,82,100,4.31,KZ,1700947805
328,olyokminsk,60.3736,120.4264,-28.32,100,99,1.3,RU,1700947806
329,malabrigo,-29.3464,-59.9696,22.97,60,100,4.93,AR,1700947806
330,zaozersk,69.4005,32.4476,-6.84,96,100,1.59,RU,1700947807
331,santa clara,22.4,-79.9667,26.81,74,75,5.14,CU,1700947807
332,kargasok,59.0556,80.8572,-9.46,84,91,4.02,RU,1700947808
333,marcos juarez,-32.6978,-62.1067,31.09,32,3,5.33,AR,1700947808
334,sabha,27.0377,14.4283,13.88,46,0,3.98,LY,1700947809
335,burang,30.25,81.1667,-2.64,49,60,1.34,CN,1700947810
336,weno,7.4515,151.8468,26.97,94,100,4.12,FM,1700947810
337,santiago de cao,-7.9589,-79.2392,21.07,78,28,5.66,PE,1700947811
338,camana,-16.6228,-72.7111,20.6,79,96,3.62,PE,1700947811
339,saldanha,-33.0117,17.9442,17.03,82,6,7.21,ZA,1700947812
340,kokpekty,48.75,82.4,-6.64,94,65,1.91,KZ,1700947813
341,san luis de la loma,17.2706,-100.8939,28.35,66,0,1.65,MX,1700947813
342,aykhal,66.0,111.5,-20.24,99,100,2.95,RU,1700947814
343,afaahiti,-17.75,-149.2833,28.93,76,92,8.37,PF,1700947814
344,yeed,4.55,43.0333,27.32,48,55,3.57,SO,1700947522
345,taltal,-25.4,-70.4833,18.93,69,23,3.4,CL,1700947815
346,saudarkrokur,65.7461,-19.6394,3.98,87,91,2.71,IS,1700947816
347,hobyo,5.3505,48.5268,27.4,79,59,7.55,SO,1700947816
348,kristiansund,63.1115,7.732,2.36,93,100,1.54,NO,1700947817
349,tucuma,-0.1833,-50.05,29.28,66,60,4.61,BR,1700947766
350,kudahuvadhoo,2.6708,72.8944,27.51,71,68,2.0,MV,1700947818
351,bajina basta,43.9708,19.5675,-0.85,97,100,3.39,RS,1700947819
352,luanco,43.6152,-5.7934,12.79,89,89,3.11,ES,1700947820
353,bengkulu,-3.8004,102.2655,23.95,94,100,1.66,ID,1700947820
354,arinos,-15.9169,-46.1056,30.96,39,95,1.7,BR,1700947821
355,hermanus,-34.4187,19.2345,16.62,73,36,3.8,ZA,1700947821
356,qarqaraly,49.4058,75.4742,-4.87,69,83,2.22,KZ,1700947822
357,arno,60.1167,18.6333,-0.12,85,100,7.55,SE,1700947822
358,itamaraca,-7.7478,-34.8256,27.03,64,37,5.44,BR,1700947823
359,tubarjal,30.4999,38.216,19.08,33,100,4.06,SA,1700947823
360,hilo,19.7297,-155.09,25.14,92,100,2.57,US,1700947576
361,biltine,14.5333,20.9167,27.38,22,99,3.12,TD,1700947829
362,saundatti,15.7833,75.1167,23.37,77,100,4.85,IN,1700947832
363,bogotol,56.2078,89.5342,-6.87,91,100,5.72,RU,1700947838
364,romanovka,51.7443,42.7527,0.63,99,100,3.7,RU,1700947839
365,wajir,1.7471,40.0573,26.79,76,100,3.55,KE,1700947842
366,gaya,24.7833,85.0,11.95,87,0,1.54,IN,1700947844
367,poronaysk,49.2167,143.1167,-11.65,63,79,5.82,RU,1700947844
368,virginia,37.5481,-77.4467,6.99,52,20,4.12,US,1700947845
369,fortuna,40.5982,-124.1573,13.53,56,0,0.0,US,1700947845
370,rurrenabaque,-14.4413,-67.5278,25.44,80,94,0.46,BO,1700947846
371,abepura,-2.6333,140.5833,24.45,94,20,1.03,ID,1700947846
372,lalibela,12.0333,39.0333,13.49,38,56,3.46,ET,1700947847
373,traverse city,44.7631,-85.6206,3.04,60,100,3.09,US,1700947743
374,ephrata,40.1798,-76.1788,5.47,60,0,1.54,US,1700947801
375,chibougamau,49.9168,-74.3659,-4.21,80,20,4.12,CA,1700947849
376,champerico,14.3,-91.9167,34.3,66,99,2.33,GT,1700947849
377,mount pearl,47.5166,-52.7813,-0.93,77,75,5.66,CA,1700947850
378,anna,51.4842,40.4299,-0.69,98,100,3.61,RU,1700947850
379,torghay,49.6339,63.4981,-1.14,83,100,3.75,KZ,1700947851
380,ulladulla,-35.35,150.4667,22.09,46,0,3.6,AU,1700947852
381,barcelos,41.5388,-8.6151,11.62,88,71,1.37,PT,1700947852
382,great falls,47.5002,-111.3008,5.25,50,0,7.72,US,1700947686
383,lijiang,26.8688,100.2207,2.68,60,0,1.56,CN,1700947853
384,phan thiet,10.9333,108.1,23.89,84,97,2.48,VN,1700947854
385,san patricio,28.017,-97.5169,21.97,78,100,5.91,US,1700947855
386,sahab,31.8721,36.005,15.35,55,50,2.06,JO,1700947856
387,hashtpar,37.8008,48.9037,18.7,44,100,3.68,IR,1700947857
388,riberalta,-10.9833,-66.1,28.11,78,75,4.12,BO,1700947857
389,kreuzlingen,47.65,9.1833,3.23,87,100,6.26,CH,1700947858
390,remire-montjoly,4.9167,-52.2667,29.02,74,75,5.14,GF,1700947858
391,whangarei,-35.7317,174.3239,19.7,53,9,3.86,NZ,1700947859
392,seminole,28.7086,-81.2081,24.05,70,20,4.12,US,1700947859
393,al jawf,29.5,38.75,18.63,37,100,4.35,SA,1700947860
394,veraval,20.9,70.3667,25.63,78,16,2.81,IN,1700947860
395,puerto maldonado,-12.6,-69.1833,29.22,79,75,1.54,PE,1700947861
396,kattivakkam,13.2167,80.3167,27.26,82,92,5.65,IN,1700947861
397,hailey,43.5196,-114.3153,-0.06,85,100,5.14,US,1700947862
398,ingeniero luis a. huergo,-39.0833,-67.2333,34.94,15,1,7.16,AR,1700947862
399,coquimbo,-29.9533,-71.3436,16.85,77,75,4.63,CL,1700947733
400,ribeirao da ilha,-27.6993,-48.5322,21.99,68,75,4.12,BR,1700947863
401,kununurra,-15.7667,128.7333,24.99,88,40,0.51,AU,1700947864
402,balabac,7.9868,117.0645,28.08,80,100,7.11,PH,1700947864
403,nuuk,64.1835,-51.7216,2.34,69,75,19.55,GL,1700947865
404,mont-dore,-22.2833,166.5833,25.56,99,75,3.0,NC,1700947865
405,saint-philippe,-21.3585,55.7679,22.77,80,50,5.24,RE,1700947866
406,rouissat,31.9243,5.3502,13.04,41,0,1.54,DZ,1700947867
407,kerikeri,-35.2268,173.9474,19.47,54,2,3.24,NZ,1700947867
408,maceio,-9.6658,-35.7353,25.69,78,0,3.6,BR,1700947726
409,cloquet,46.7216,-92.4594,-2.85,83,100,3.6,US,1700947863
410,olhao,37.0286,-7.8411,13.38,82,0,2.06,PT,1700947869
411,kailua-kona,19.6406,-155.9956,29.04,73,20,3.09,US,1700947869
412,bodaybo,57.8506,114.1933,-25.72,100,95,0.42,RU,1700947870
413,peniche,39.3558,-9.3811,15.31,80,48,3.75,PT,1700947870
414,pedro ii,-4.4247,-41.4586,28.31,34,17,1.19,BR,1700947871
415,hadibu,12.65,54.0333,25.43,74,18,3.63,YE,1700947871
416,tynec nad sazavou,49.8335,14.5898,2.47,91,98,3.61,CZ,1700947872
417,moyynkum,44.2914,72.9469,4.37,55,29,6.19,KZ,1700947872
418,myeik,12.4333,98.6,24.57,73,98,1.8,MM,1700947873
419,vernon,50.2581,-119.2691,4.05,72,86,0.45,CA,1700947873
420,quellon,-43.1167,-73.6167,13.02,72,41,3.9,CL,1700947874
421,aral,40.5156,81.2636,2.75,31,14,1.41,CN,1700947874
422,meadow lake,34.8014,-106.5436,8.21,59,28,4.45,US,1700947875
423,polovinnoye,54.7914,65.9864,1.82,97,100,5.91,RU,1700947876
424,floro,61.5996,5.0328,5.54,87,75,4.12,NO,1700947876
425,bela,25.9333,81.9833,17.24,35,1,1.02,IN,1700947877
426,la'ie,21.6477,-157.9253,28.98,72,21,2.24,US,1700947877
427,xique xique,-10.8217,-42.7311,30.14,43,19,2.7,BR,1700947878
428,tionk essil,12.7856,-16.5217,23.98,72,0,3.55,SN,1700947879
429,bemidji,47.4736,-94.8803,-2.12,74,100,6.17,US,1700947645
430,alice springs,-23.7,133.8833,21.75,64,100,3.09,AU,1700947581
431,rimavska sobota,48.3828,20.0224,-1.2,71,0,1.7,SK,1700947880
432,ende,-8.8432,121.6623,25.89,83,98,0.61,ID,1700947881
433,carmi,38.0909,-88.1587,9.05,49,0,0.0,US,1700947882
434,pamandzi,-12.7967,45.2794,27.88,83,75,2.06,YT,1700947882
435,viedma,-40.8135,-62.9967,32.79,17,42,4.12,AR,1700947883
436,yevpatoriya,45.1972,33.3558,14.41,77,100,10.55,UA,1700947883
437,saint-francois,46.4154,3.9054,2.03,100,0,1.54,FR,1700947884
438,mahalapye,-23.1041,26.8142,27.71,21,16,6.22,BW,1700947885
439,kosh-agach,50.0,88.6667,-13.16,90,81,0.39,RU,1700947885
440,kajaani,64.2273,27.7285,-17.97,85,99,0.51,FI,1700947886
441,goulburn,-34.75,149.7167,18.21,79,0,1.79,AU,1700947886
442,soio,-6.1349,12.3689,25.75,79,100,0.98,AO,1700947887
443,katsuren-haebaru,26.3369,127.8719,21.01,88,100,2.57,JP,1700947887
444,prabumulih,-3.45,104.25,22.72,97,99,0.51,ID,1700947888
445,nema,57.5067,50.5011,-2.61,96,89,3.32,RU,1700947888
446,ranchettes,41.2186,-104.7903,-5.09,69,40,6.71,US,1700947889
447,stephenville,32.2207,-98.2023,15.07,55,100,4.12,US,1700947738
448,haiku-pauwela,20.9219,-156.3051,28.01,58,20,6.69,US,1700947890
449,narvik,68.4384,17.4272,-2.89,93,100,1.49,NO,1700947890
450,bathsheba,13.2167,-59.5167,28.34,74,20,7.2,BB,1700947891
451,ha giang,22.8333,104.9833,17.6,91,59,1.33,VN,1700947891
452,revelstoke,50.9832,-118.2023,1.01,64,100,0.0,CA,1700947736
453,salinas,36.6777,-121.6555,19.18,37,0,5.14,US,1700947893
454,sangueya,10.7,-14.3667,23.24,77,22,1.89,GN,1700947893
455,rockport,28.0206,-97.0544,22.01,87,100,6.17,US,1700947894
456,solleftea,63.1667,17.2667,-5.08,83,98,2.95,SE,1700947894
457,levuka,50.1834,-105.4011,-0.1,94,100,9.05,CA,1700947895
458,ar ruways,24.1103,52.7306,24.32,68,37,4.75,AE,1700947895
459,san felipe,10.3399,-68.7425,23.7,96,72,2.44,VE,1700947896
460,groningen,53.25,6.75,3.9,92,63,1.87,NL,1700947896
461,kodinsk,58.6881,99.1844,-22.55,99,12,1.34,RU,1700947897
462,kourou,5.1552,-52.6478,29.03,86,73,2.91,GF,1700947897
463,belmonte,-15.8631,-38.8828,24.34,83,95,6.22,BR,1700947898
464,noshiro,40.2039,140.0242,4.59,61,100,5.92,JP,1700947898
465,gubkinskiy,64.434,76.5026,-17.06,90,17,5.94,RU,1700947899
466,chhabra,24.6667,76.8333,16.4,43,48,3.64,IN,1700947899
467,houlton,46.1262,-67.8403,-4.1,53,0,2.06,US,1700947900
468,rio grande,-32.035,-52.0986,22.06,73,22,4.97,BR,1700947901
469,la passe,45.5549,-0.8967,3.32,77,39,3.55,FR,1700947901
470,tyukhtet,56.5389,89.3011,-6.68,92,100,4.29,RU,1700947901
471,horta,38.5333,-28.6333,20.01,96,75,5.81,PT,1700947902
472,nikolayevsk-on-amure,53.1406,140.73,-18.54,67,80,5.49,RU,1700947903
473,brookings,44.3114,-96.7984,-3.83,81,100,3.6,US,1700947692
474,port isabel,26.0734,-97.2086,25.02,84,100,4.12,US,1700947904
475,rucar,45.4,25.1667,-1.42,90,100,4.27,RO,1700947904
476,bac lieu,9.285,105.7244,25.1,88,100,3.89,VN,1700947905
477,szentlorinc,46.0402,17.9872,0.49,74,7,4.56,HU,1700947905
478,thief river falls,48.1191,-96.1812,0.53,64,0,9.77,US,1700947906
479,benguela,-12.5763,13.4055,25.85,83,100,0.81,AO,1700947906
480,waddan,29.1614,16.139,14.84,44,0,4.83,LY,1700947907
481,gurupi,-11.7292,-49.0686,29.96,43,71,1.84,BR,1700947907
482,kirensk,57.7853,108.1119,-17.24,98,68,1.34,RU,1700947908
483,ancud,-41.8697,-73.8203,13.02,72,15,2.89,CL,1700947908
484,upington,-28.4478,21.2561,27.21,14,25,3.09,ZA,1700947909
485,manggar,-2.8833,108.2667,25.81,89,99,1.88,ID,1700947909
486,whiteville,34.3388,-78.7031,12.07,54,0,2.57,US,1700947910
487,lakatoro,-16.0999,167.4164,26.41,64,100,3.99,VU,1700947910
488,dubbo,-32.25,148.6167,20.07,83,75,3.6,AU,1700947911
489,aberystwyth,52.4155,-4.0829,8.27,80,100,2.53,GB,1700947911
490,papao,-17.75,-149.55,29.82,78,62,10.04,PF,1700947912
491,chifeng,42.2683,118.9636,-7.49,60,32,2.07,CN,1700947912
492,formosa,-26.1775,-58.1781,29.99,62,40,2.57,AR,1700947913
493,faratsiho,-19.4,46.95,15.25,87,67,0.74,MG,1700947913
494,lhasa,29.65,91.1,-4.98,45,0,2.1,CN,1700947914
495,tagiura,32.8817,13.3506,18.99,53,20,12.96,LY,1700947914
496,kapsan-up,41.0903,128.2933,-10.24,76,54,0.54,KP,1700947915
497,kokopo,-4.352,152.2633,27.08,78,5,0.85,PG,1700947916
498,la villa del rosario,10.3258,-72.3134,28.26,77,70,1.62,VE,1700947916
499,kiffa,16.6166,-11.4045,24.57,13,0,3.94,MR,1700947917
500,madona,56.8533,26.217,-5.83,95,100,2.46,LV,1700947917
501,puerto madero,14.7208,-92.4215,32.11,55,40,0.0,MX,1700947918
502,la asuncion,11.0333,-63.8628,26.81,81,54,6.79,VE,1700947918
503,santa cruz,-17.8,-63.1667,28.7,57,75,3.09,BO,1700947918
504,casper,42.8666,-106.3131,-4.6,73,0,6.69,US,1700947919
505,illizi,26.4833,8.4667,13.89,41,0,1.84,DZ,1700947919
506,laramie,41.3114,-105.5911,-5.79,68,100,2.68,US,1700947651
507,ha'il,27.5219,41.6907,17.01,82,0,3.09,SA,1700947920
508,coyhaique,-45.5752,-72.0662,15.34,67,75,2.06,CL,1700947699
509,middelfart,55.5059,9.7305,-0.79,60,1,5.28,DK,1700947921
510,oranjemund,-28.55,16.4333,15.71,91,1,3.52,NA,1700947922
511,ca mau,9.1769,105.15,23.63,93,100,1.28,VN,1700947922
512,hastings,50.8552,0.5729,3.62,77,86,3.57,GB,1700947923
513,mejit,10.2753,170.8646,27.07,80,99,7.3,MH,1700947923
514,aldama,22.9167,-98.0667,29.16,55,4,3.03,MX,1700947924
515,taro,-8.3862,115.28,22.0,96,100,0.59,ID,1700947925
516,jamtara,23.95,86.8,17.82,56,0,1.97,IN,1700947925
517,gagliano del capo,39.8442,18.3695,6.68,65,18,10.8,IT,1700947926
518,tuy hoa,13.0833,109.3,24.43,94,99,4.67,VN,1700947926
519,obo,5.3998,26.4869,20.45,96,100,2.47,CF,1700947927
520,ziro,27.6333,93.8333,4.57,65,0,1.29,IN,1700947927
521,lethem,3.3803,-59.7968,30.2,51,95,2.26,GY,1700947928
522,nelidovo,56.2211,32.7774,-3.91,96,99,2.87,RU,1700947928
523,qarchi gak,37.04,66.7889,15.95,18,100,2.93,AF,1700947929
524,caarapo,-22.6342,-54.8222,18.89,98,100,2.87,BR,1700947929
525,spas-klepiki,55.1347,40.1767,-9.48,98,100,0.69,RU,1700947930
526,happy valley-goose bay,53.3168,-60.3315,-8.83,67,20,4.63,CA,1700947930
527,thomson,33.4707,-82.5046,13.02,68,100,3.09,US,1700947931
528,kuruman,-27.4524,23.4325,25.55,36,83,3.84,ZA,1700947931
529,vila velha,-20.3297,-40.2925,23.97,75,75,6.17,BR,1700947932
530,hamilton,39.1834,-84.5333,8.33,58,0,3.6,US,1700947726
531,uyskoye,54.3775,60.0047,1.27,97,98,3.43,RU,1700947933
532,almunecar,36.7339,-3.6907,17.35,53,31,2.66,ES,1700947933
533,lensk,60.7253,114.9278,-30.34,100,91,1.5,RU,1700947934
534,kronoby,63.7286,23.0339,-3.94,95,75,0.51,FI,1700947934
535,yokadouma,3.5167,15.05,23.08,83,100,0.62,CM,1700947935
536,walvis bay,-22.9575,14.5053,16.53,88,2,0.0,NA,1700947935
537,solnechnyy,50.7214,136.6319,-22.03,88,4,1.39,RU,1700947936
538,ban selaphum,16.0167,103.95,23.04,74,100,5.85,TH,1700947936
539,callao,-12.0667,-77.15,21.16,73,75,4.63,PE,1700947838
540,diebougou,10.9667,-3.25,31.03,25,98,1.2,BF,1700947937
541,rhede,51.8333,6.7,4.82,91,24,2.16,DE,1700947938
542,shajiang,26.7825,119.9669,12.28,84,6,1.59,CN,1700947938
543,takanabe,32.1333,131.5,7.94,75,51,2.58,JP,1700947939
544,tughyl,47.7252,84.2063,1.94,84,59,2.47,KZ,1700947940
545,amurzet,47.6967,131.0981,-19.96,89,85,2.9,RU,1700947940
546,bonthe,7.5264,-12.505,26.21,80,72,2.62,SL,1700947941
547,bath,51.3779,-2.3591,3.28,92,100,0.94,GB,1700947941
548,mossel bay,-34.1831,22.146,17.88,86,63,2.92,ZA,1700947942
549,olinda,-8.0089,-34.8553,26.85,69,40,5.14,BR,1700947942
550,nieuw amsterdam,5.8833,-55.0833,28.9,78,84,5.42,SR,1700947943
551,el campo,29.1966,-96.2697,20.16,68,100,4.63,US,1700947943
552,namibe,-15.1961,12.1522,23.69,84,89,3.38,AO,1700947944
553,yeppoon,-23.1333,150.7333,22.88,70,97,3.59,AU,1700947944
554,hasaki,35.7333,140.8333,7.94,76,100,5.2,JP,1700947945
555,sakaiminato,35.55,133.2333,1.99,100,40,2.06,JP,1700947946
556,egilsstadir,65.2653,-14.3948,0.95,93,0,1.03,IS,1700947946
557,novellara,44.843,10.7275,7.78,46,0,5.3,IT,1700947947
558,lewiston orchards,46.3804,-116.9754,5.7,74,100,1.54,US,1700947947
559,lengshuitan,26.4111,111.5956,11.63,72,49,2.11,CN,1700947948
560,eyl,7.9803,49.8164,25.73,75,7,7.98,SO,1700947948
561,quinte west,44.1834,-77.5662,2.08,72,75,4.63,CA,1700947949
562,arkalyk,50.2486,66.9114,-2.27,74,100,3.85,KZ,1700947949
563,machilipatnam,16.1667,81.1333,25.0,79,27,5.1,IN,1700947950
564,twistringen,52.8,8.65,1.55,91,7,2.98,DE,1700947950
565,sumbawa besar,-8.5,117.4333,23.6,91,82,1.84,ID,1700947951
566,dibba al-hisn,25.6196,56.2729,20.1,71,0,0.68,AE,1700947951
567,antsiranana,-12.2787,49.2917,25.23,80,100,7.45,MG,1700947952
568,mulanje,-16.0316,35.5,23.62,69,92,2.45,MW,1700947952
569,kayangel,8.0823,134.7173,28.64,77,22,6.58,PW,1700947953
570,bishkek,42.87,74.59,-0.89,43,55,1.39,KG,1700947953
571,zinjibar,13.1287,45.3807,26.27,72,74,3.3,YE,1700947954
572,usinsk,65.9939,57.5281,-24.57,100,76,0.41,RU,1700947955
573,belo sur tsiribihina,-19.7,44.55,24.75,93,30,1.21,MG,1700947955
574,itigi,-5.7,34.4833,21.12,66,96,3.21,TZ,1700947956
575,brioude,45.1667,3.4167,2.07,70,98,2.87,FR,1700947956
576,aitape,-3.1374,142.3475,27.3,77,94,1.12,PG,1700947957
577,zakamensk,50.3741,103.2863,-13.72,95,100,1.56,RU,1700947958
578,antofagasta,-23.65,-70.4,18.6,73,30,3.64,CL,1700947958
579,beau vallon,-20.4189,57.6953,24.01,83,40,5.14,MU,1700947959
580,figuig (centre),32.1089,-1.2286,11.41,19,100,0.23,MA,1700947959
581,luderitz,-26.6481,15.1594,18.35,55,1,7.4,NA,1700947960
582,east falmouth,41.5784,-70.5586,2.23,47,0,0.0,US,1700947960
583,jinzhou,41.1078,121.1417,-4.31,53,1,2.69,CN,1700947960
